ID;Name;Besucht;Breitengrad;Längengrad;Hauptheft;Baudensteig;Burgen + Schlösser;Goethe im Harz;Goslar Wandert;Harzer Grenzweg;Harzer Hexenstieg;Harzer Steiger;Karstwanderweg;Kloster Wanderweg;Lutherweg;Nationalpark Harz;Quedlinburg;Selketalstieg;Steinway-Trail;Dorfrunde Seesen;Deister Wandernadel;Huy Fallstein
1;Eckertalsperre -Staumauer ;;51.84165;10.57998;1;;;;;1;;;;;;1;;;;;;
2;Scharfenstein – Rangerstation ;;51.83017;10.60277;1;;;;;1;;;;;;1;;;;;;
3;Am Kruzifix ;;51.84437;10.61180;1;;;;;1;;;;;;1;;;;;;
4;Taubenklippe ;;51.86213;10.61860;1;;;;;1;;;;;;1;;;;;;
5;Froschfelsen ;;51.85192;10.65457;1;;;;;;;;;;;1;;;;;;
6;Bremer Hütte (Obere Ilsefälle) ;;51.82868;10.63485;1;;;;;;;;;;;1;;;;;;
7;Gasthaus Plessenburg ;;51.83215;10.66826;1;;;;;;;;;;;1;;;;;;
8;Stempelsbuche ;;51.81937;10.62792;1;;;;;;;;;;;1;;;;;;
9;Brockenhaus ;;51.80054;10.61578;1;;;1;;1;1;;;;;1;;;;;;
10;Große Zeterklippe ;;51.80264;10.64335;1;;;;;1;;;;;;1;;;;;;
11;Eckerloch ;;51.78499;10.61792;1;;;;;1;;;;;;1;;;;;;
12;Achtermannshöhe ;;51.76145;10.56913;1;;;;;;;;;;;1;;;;;;
13;Ahrensklint ;;51.77356;10.66719;1;;;1;;;1;;;;;1;;;;;;
14;Schnarcherklippe (Schutzhütte) ;;51.75445;10.66565;1;;;1;;;;;;;;;;;;;;
15;Leistenklippe ;;51.78152;10.69378;1;;;;;;;;;;;1;;;;;;
16;Ferdinandsstein ;;51.82350;10.65210;1;;;;;;;;;;;1;;;;;;
17;Trudenstein ;;51.77218;10.69656;1;;;;;;1;;;;;1;;;;;;
18;Grenzweg am Kaffeehorst ;;51.75183;10.63245;1;;;;;1;;;;;;;;;;;;
19;Skidenkmal (Nähe Eckerstausee) ;;51.82037;10.57298;1;;;;;1;;;;;;1;;;;;;
20;Barenberg (Aussichtspunkt) ;;51.75032;10.67505;1;;;;;;;;;;;;;;;;;
21;Helenenruh Elend ;;51.75407;10.68091;1;;;;;;;;;;;;;;;;;
22;Gelber Brink ;;51.79102;10.64481;1;;;;;1;1;;;;;1;;;;;;
23;Molkenhausstern ;;51.80771;10.65779;1;;;;;;;;;;;1;;;;;;
24;Wolfsklippe ;;51.81947;10.67052;1;;;;;;;;;;;1;;;;;;
25;Oberförster-Koch-Denkmal ;;51.82528;10.68840;1;;;;;;;;;;;;;;;;;
26;Mönchsbuche ;;51.81783;10.70789;1;;;;;;;;;;;;;;;;;
27;Ottofelsen ;;51.79669;10.71195;1;;;;;;;;;;;;;;;;;
28;Gasthaus Steinerne Renne ;;51.80494;10.69977;1;;;;;;;;;;;;;;;;;
29;Elversstein ;;51.80444;10.73472;1;;;;;;;;;;;;;;;;;
30;Ilsestein ;;51.84634;10.66313;1;;;;;;;;;;;1;;;;;;
31;Agnesberg ;;51.83003;10.79796;1;;;1;;;;;;;;;;;;;;
32;Gasthaus Christianental ;;51.82772;10.81290;1;;;;;;;;;;;;;;;;;
33;Stapenberg ;;51.82613;10.84825;1;;;;;;;;;;;;;;;;;
34;Scharfenstein ;;51.81002;10.79840;1;;;;;;;;;;;;;;;;;
35;Gasthaus Armeleuteberg ;;51.81545;10.77663;1;;;;;;;;;;;;;;;;;
36;Peterstein ;;51.79222;10.78028;1;;;;;;;;;;;;;;;;;
37;Büchenberg ;;51.79104;10.81842;1;;;;;;;1;;;;;;;;;;
38;Galgenberg ;;51.77380;10.81677;1;;;1;;;;;;;;;;;;;;
39;Tagebau Felswerke ;;51.75997;10.80184;1;;;;;;;1;;;;;;;;;;
40;Königshütter Wasserfall ;;51.75110;10.75307;1;;;;;;1;;;;;;;;;;;
41;Ruine Königsburg ;;51.73841;10.76719;1;;;1;;;1;;;;;;;;;;;
42;Trogfurther Brücke ;;51.73558;10.80505;1;;;1;;;1;;;;;;;;;;;
43;Wasserscheide Weser-Elbe „Hohe Tür“ ;;51.61864;10.50431;1;;;;;;;;;;;;;;;;;
44;Kapitelsberg ;;51.70559;10.74089;1;;;;;;;;;;;;;;;;;
45;Dicke Tannen ;;51.65725;10.64807;1;;;;;;;;;;;;;;;;;
46;Grenzmuseum am Ring der Erinnerung ;;51.69360;10.66670;1;;;;;1;;;;;;;;;;;;
47;Oberharzblick am Buchenberg ;;51.65288;10.74871;1;;;;;;;;;;;;;;;;;
48;Stierbergsteich ;;51.64111;10.75639;1;;;;;;;;;;;;;;;;;
49;Grüntal ;;51.67660;10.75533;1;;;;;;;;;;;;;;;;;
50;Walzenhütte ;;51.66103;10.76721;1;;;;;;;;;;;;;;;;;
51;Carlsturm ;;51.65641;10.79706;1;;;;;;;;;;;;;;;;;
52;Trageburg am Hexenstieg ;;51.70275;10.79121;1;;;;;;1;;;;;;;;;;;
53;Hassel-Vorsperre ;;51.70968;10.83113;1;;;;;;;;;;;;;;;;;
54;Rotestein ;;51.72912;10.88091;1;;;;;;;;;;;;;;;;;
55;Wüstung Selkenfelde/Kirche ;;51.65044;10.91886;1;;;;;;;;;;;;;1;;;;
56;Rappbodeblick Trautenstein ;;51.71153;10.80097;1;;;;;;;;;;;;;;;;;
57;Echowiese Allrode ;;51.69020;10.98933;1;;;;;;;;;;;;;;;;;
58;Pferdchen ;;51.63841;10.63053;1;;;;;;;;;;;;;;;;;
59;Klostergrund Michaelstein ;;51.80498;10.90977;1;;;;;;;;;;;;;;;;;
60;Stemberghaus-Köhlerei ;;51.72195;10.89618;1;;;;;;1;1;;;;;;;;;;
61;Harzer Grauwacke Rieder ;;51.71355;11.17952;1;;;;;;;1;;;;;;;;;;
62;Talsperre Wendefurth (Talsperrenblick) ;;51.74322;10.91930;1;;;1;;;1;;;;;;;;;;;
63;Schöneburg (Aussichtspunkt) ;;51.72978;10.92309;1;;;;;;1;;;;;;;;;;;
64;Böser Kleef (Aussichtspunkt) ;;51.73003;10.94957;1;;;;;;;;;;;;;;;;;
65;Gasthaus Todtenrode ;;51.73703;10.95567;1;;;;;;;;;;;;;;;;;
66;Wilhelmsblick (Aussichtspunkt) ;;51.72310;10.96613;1;;;;;;;;;;;;;;;;;
67;Weißer Hirsch (Aussichtspunkt) ;;51.71692;10.97805;1;;;;;;;;;;;;;;;;;
68;„Pfeil“-Denkmal ;;51.71732;11.00223;1;;;;;;;;;;;;;;;;;
69;Sonnenklippe (Bodetal) ;;51.72200;10.97013;1;;;1;;;1;;;;;;;;;;;
70;Prinzensicht (Aussichtspunkt) ;;51.73372;11.00740;1;;;;;;;;;;;;;;;;;
71;Rosstrappe (Abzweig Schurre) ;;51.73724;11.01865;1;;;1;;;;;;;;;;;;;;
72;La Viershöhe ;;51.73058;11.01683;1;;;;;;;;;;;;;;;;;
73;Glockenstein ;;51.72912;11.05713;1;;;;;;;;;;;;;;;;;
74;Hamburger Wappen (Teufelsmauer) ;;51.77690;11.00113;1;;;;;;;;;;;;;;;;;
75;Hahnenkleeklippen ;;51.73739;10.56589;1;;;;;;;;;;;1;;;;;;
76;Großvaterfelsen ;;51.78598;10.96717;1;;;;;;;;;;;;;;;;;
77;Ruine Luisenburg ;;51.78275;10.95420;1;;;;;;;;;;;;;;;;;
78;Barocke Gärten ;;51.78747;10.95635;1;;;1;;;;;;;;;;;;;;
79;Otto-Ebert-Brücke (am Herzogsweg) ;;51.78495;10.92302;1;;;;;;;;;;;;;;;;;
80;Burgruine Regenstein ;;51.81386;10.95836;1;;1;1;;;;;;;;;;;;;;
81;Sandhöhlen im Heers ;;51.81721;10.96584;1;;;;;;;;;;;;;;;;;
82;Regenstein-Mühle ;;51.81653;10.94883;1;;;;;;;;;;;;;;;;;
83;Austbergturm ;;51.83771;10.85929;1;;;;;;;;;;;;;;;;;
84;Altenburg (bei Heimburg) ;;51.82693;10.91130;1;;1;;;;;;;;;;;;;;;
85;Wasserkunst Thumkuhlental ;;51.80824;10.72697;1;;;1;;;;1;;;;;;;;;;
86;Bisongehege ;;51.66192;11.34171;1;;;;;;;;;;;;;;;;;
87;Volkmarskeller ;;51.78734;10.87332;1;;;;;;;;;;;;;;;;;
88;Aussichtspavillon Hoher Kleef ;;51.75370;10.84622;1;;;1;;;;;;;;;;;;;;
89;Schornsteinberg ;;51.75973;10.85047;1;;;;;;;;;;;;;;;;;
90;Roter Schuss ;;51.61714;10.65168;1;;;;;1;;;;;;;;;;;;
91;Weltkulturerbe Rammelsberg ;;51.89008;10.41905;1;;;1;1;;;1;;;;;;;;;;
92;Poppenberg mit Aussichtsturm ;;51.58811;10.82696;1;;;;;;;;;;;;;;;;;
93;Dreitälerblick ;;51.60127;10.79257;1;;;;;;;;;;;;;;;;;
94;Dreiherrenstein (am Brandhai am 48A) ;;51.60638;10.89193;1;;;;;;;;;;;;;;;;;
95;Ilfelder Wetterfahne ;;51.58742;10.79158;1;;;1;;;;;;;;;;;;;;
96;Ehemalige Steinmühle ;;51.60770;10.72845;1;;;;;;;;;;;;;;;;;
97;Ziegenalm Sophienhof ;;51.63259;10.79096;1;;;;;;;;;;;;;;;;;
98;Ruine Hohnstein ;;51.56980;10.83748;1;;;;;;;;;;;;;;;;;
99; Harzer Holzdampflok ;;51.55665;10.82549;1;;;1;;;;;1;;;;;;;;;
100;Ebersburg ;;51.55382;10.87972;1;;;;;;;;;;;;;;;;;
101;Einhornhöhle ;;51.63502;10.40440;1;1;;1;;;;;1;;;;;;;;;
102;Lageswarte ;;51.91484;10.25144;1;;;;;;;;;;;;;;;;;
103;Luchsstein ;;51.88032;10.25558;1;;;;;;;;;;;;;;;;;
104;Tränkebachhütte ;;51.88490;10.23857;1;;;;;;;;;;;;;;1;;;
105;Prinzenlaube ;;51.82580;10.28858;1;;;1;;;;;;;;;;;;;;
106;Schöne Aussicht Bielstein ;;51.87683;10.29205;1;;;;;;;;;;;;;;;;;
107;Maaßener Gaipel ;;51.86360;10.29024;1;;;;;;;1;;;;;;;;;;
108;Sudmerberger Warte ;;51.91484;10.46775;1;;;;1;;;;;;;;;;;;;
109;Heimberg ;;51.91280;10.33016;1;;;;;;;;;;;;;;;;;
110;Granestausee ;;51.90058;10.38222;1;;;;;;;;;;;;;;;;;
111;Steinbergturm/Steinbergalm ;;51.90652;10.40525;1;;;;1;;;;;;;;;;;;;
112;Liebesbank ;;51.86065;10.35732;1;;;;1;;;;;;;;;;;;;
113;Grumbacher Teich ;;51.84918;10.29940;1;;;;1;;;1;;;;;;;;;;
114;Ramseck ;;51.88848;10.42668;1;;;;1;;;;;;;;;;;;;
115;Bismarckturm ;;51.64080;10.47221;1;1;;;;;;;;;;;;;;;;
116;Verlobungsinsel in der Oker ;;51.86725;10.47408;1;;;1;1;;;;;;;;;;;;;
117;Treppenstein ;;51.87183;10.48139;1;;;1;1;;;;;;;;;;;;;
118;Kästehaus ;;51.86812;10.48468;1;;;;1;;;;;;;;;;;;;
119;Hallesche Hütte (an den Ahrendsberger Klippen) ;;51.85412;10.46787;1;;;;;;;;;;;;;;;;;
120;Elfenstein ;;51.87910;10.52723;1;;;;;;;;;;;;;;;;;
121;„Aussichtsreich“ Burgberg ;;51.87167;10.56647;1;;;;;;;;;;;1;;;;;;
122;Kreuz des deutschen Ostens ;;51.87532;10.59258;1;;;;;;;;;;;1;;;;;;
123;Gaststätte Rinderstall ;;51.71627;10.56240;1;;;;;;1;;;;;1;;;;;;
124;Köte am Heidenstieg ;;51.84091;10.42347;1;;;;;;;;;;;;;;;;;
125;Schalker Turm ;;51.84882;10.38229;1;;;;;;;;;;;;;;;;;
126;Lochstein. Oberer Schalker Graben ;;51.83702;10.37981;1;;;;;;;1;;;;;;;;;;
127;Weppner Hütte. Jägersbleeker Teich ;;51.79791;10.38888;1;;;;;;;1;;;;;;;;;;
128;Huttaler Widerwaage ;;51.78573;10.37743;1;;;;;;1;1;;;;;;;;;;
129;Hütte im WeltWald Harz ;;51.81926;10.22503;1;;;1;;;;;1;;;;;;;;;
130;Iberger Albertturm ;;51.81987;10.24520;1;1;;;;;;;1;;;;;;;;;
131;Kaysereiche (Schutzhütte) ;;51.79208;10.27573;1;;;;;;;;;;;;;;;;;
132;Schwarzenberg. Köte Brockenblick ;;51.80594;10.44558;1;;;1;;;;;;;;;;;;;;
133;Förster-Ludewig-Platz ;;51.80347;10.48783;1;;;;;;1;1;;;;;;;;;;
134;Gustav-Baumann-Weg (NPH) ;;51.78544;10.46754;1;;;;;;;;;;;1;;;;;;
135;Wolfswarte ;;51.79024;10.50364;1;;;;;;;;;;;1;;;;;;
136;Eckersprung ;;51.78772;10.58642;1;;;1;;1;1;;;;;1;;;;;;
137;Bärenbrucher Teich ;;51.77606;10.35100;1;;;;;;1;1;;;;;;;;;;
138;Braunseck ;;51.76677;10.35523;1;;;;;;;;;;;;;;;;;
139;Kuckholzklippe ;;51.76632;10.31383;1;;;;;;;;;;;;;;;;;
140;Eselsplatz ;;51.74620;10.30148;1;;;1;;;1;;;;;;;;;;;
141;Oberer Hahnebalzer Teich ;;51.78476;10.28608;1;;;;;;;;;;;;;;;;;
142;Mandolinenhütte ;;51.89504;10.27904;1;;;;;;;;;;;;;;1;;;
143;Köte Schindelkopf ;;51.72322;10.33626;1;;;;;;;;;;;;;;;;;
144;Hanskühnenburg ;;51.72814;10.40336;1;1;;1;;;;;;;;1;;;;;;
145;Schmidts-Denkmal ;;51.77710;10.38783;1;;;;;;;;;;;;;;;;;
146;Großes Wehr ;;51.76260;10.44573;1;;;;;;;1;;;;1;;;;;;
147;Eleonorenblick ;;51.75382;10.39834;1;;;;;;;;;;;;;;;;;
148;Naturmythenpfad (NPH) ;;51.72311;10.58188;1;;;;;;;;;;;1;;;;;;
149;Kleine Oker ;;51.79513;10.47567;1;;;;;;;;;;;;;;;;;
150;Großer Knollen ;;51.66740;10.43012;1;1;;;;;;;;;;;;;;;;
151;Ruine Scharzfels ;;51.62885;10.40893;1;1;;;;;;;1;;;;;;;;;
152;Knollenkreuz ;;51.64342;10.44260;1;;;;;;;;;;;;;;;;;
153;Goedeckenplatz ;;51.68840;10.47205;1;;;;;;;;;;;;;;;;;
154;Dreibrodestein ;;51.73224;10.51136;1;;;;;;;;;;;1;;;;;;
155;Rehberger Grabenhaus ;;51.72925;10.53807;1;;;1;;;1;1;;;;1;;;;;;
156;Wurmberg-Baude ;;51.75643;10.61868;1;;;;;1;;;;;;;;;;;;
157;Kapellenfleck ;;51.69071;10.59574;1;;;;;;;;;;;;;;;;;
158;Hassenstein ;;51.63829;10.52495;1;;;;;;;;;;;;;;;;;
159;Stöberhai ;;51.65653;10.55408;1;;;;;1;;;;;;;;;;;;
160;Helenenruh ;;51.64226;10.61077;1;;;;;;;;;;;;;;;;;
161;Stephanshütte ;;51.63092;10.54271;1;;;;;;;;;;;;;;;;;
162;Kreuztalsklippe ;;51.62819;10.58487;1;;;;;;;;;;;;;;;;;
163;Gipfelblick am Kaiserweg ;;51.65318;10.60129;1;;;;;;;;;;;;;;;;;
164;Stiefmutter ;;51.62310;10.64326;1;;;;;1;;;;;;;;;;;;
165;Wendel-Eiche ;;51.62454;10.65709;1;;;;;1;;;;;;;;;;;;
166;Sachsensteinhütte ;;51.58073;10.58385;1;;;;;1;;;1;;;;;;;;;
167;Hexentanzplatz (= Ellricher Blick) ;;51.58104;10.64591;1;;;;;1;;;1;;;;;;;;;
168;Dreieckiger Pfahl ;;51.78133;10.58055;1;;;;;1;;;;;;1;;;;;;
169;Molkenhaus ;;51.85568;10.57310;1;;;;;;;;;;;1;;;;;;
170;Rabenklippe ;;51.86502;10.60532;1;;;;;1;;;;;;1;;;;;;
171;Altarklippe (oberhalb d. Granestausees) ;;51.88803;10.33153;1;;;;1;;;;;;;;;;;;;
172;Katzsohlteich ;;51.63703;10.96838;1;;;;;;;1;;;;;;1;;;;
173;Waldwiese Hirschbüchenkopf ;;51.63769;11.02274;1;;;;;;;;;;;;;1;;;;
174;Hohnehof ;;51.77536;10.71920;1;;;;;;;;;;;1;;;;;;
175;Schaubergwerk Glasebach ;;51.61185;11.06510;1;;;;;;;1;;;;;;1;;;;
176;Uhlenköpfe Hänichen ;;51.63218;11.08296;1;;;;;;;;;;;;;1;;;;
177;Verlobungsurne Alexisbad ;;51.64635;11.11478;1;;;;;;;;;;;;;1;;;;
178;Hirschgrund (am Gasthaus Königsruhe) ;;51.73363;11.01775;1;;;;;;1;;;;;;;;;;;
179;IV. Friedrichshammer ;;51.66857;11.16581;1;;;;;;;1;;;;;;1;;;;
180;Alter Kohlenschacht ;;51.70738;11.25546;1;;;;;;;;;;;;;1;;;;
181;Forstmeister Tannen ;;51.71611;11.21000;1;;;;;;;;;;;;;1;;;;
182;Schirm ;;51.69141;11.18253;1;;;;;;;;;;;;;;;;;
183;Försterblick Gernrode ;;51.71769;11.13090;1;;;;;;;;;;;;1;1;;;;
184;Bärendenkmal ;;51.68222;11.09589;1;;;;;;;;;;;;1;;;;;
185;Preußenturm ;;51.72378;11.11917;1;;;;;;;;;;;;1;1;;;;
186;Anhaltinischer Salstein ;;51.71634;11.10558;1;;;;;;;;;;;;1;;;;;
187;Lauenburg ;;51.72632;11.08071;1;;1;;;;;;;;;;;;;;;
188;Teufelsmauer Weddersleben ;;51.75603;11.08734;1;;;1;;;;;;;;;;;;;;
189;Große Teufelsmühle ;;51.68488;11.07928;1;;;;;;;;;;;;;;;;;
190;Bergrat-Müller-Teich ;;51.67948;11.06500;1;;;;;;;1;;;;;;;;;;
191;Laubtalblick ;;51.67238;11.03650;1;;;;;;;;;;;;;;;;;
192;Historischer Gipsbrennofen ;;51.57689;10.57524;1;;;;;1;;;1;;;;;;;;;
193;Stahlquelle ;;51.60795;11.13672;1;;;;;;;1;;;;;;;;;;
194;Hellergrund ;;51.61791;11.08133;1;;;;;;;1;;;;;;;;;;
195;Köthener Hütte ;;51.66090;11.12627;1;;;;;;;;;;;;;1;;;;
196;Bremer Teich ;;51.68493;11.11232;1;;;;;;;;;;;;1;;;;;
197;Burgruine Anhalt ;;51.66807;11.19318;1;;1;;;;;;;;;;;1;;;;
198;Glockensteine ;;51.51768;10.85805;1;;;;;;;;1;;;;;;;;;
199;Bismarckturm ;;51.71425;11.25879;1;;;;;;;;;;;;;;;;;
200;Burg Falkenstein ;;51.68180;11.26595;1;;1;;;;;;;;;;;1;;;;
201;Konradsburg ;;51.71400;11.34800;1;;1;;;;;;;;;;;;;;;
202;Landschaftspark Degenershausen ;;51.68540;11.30768;1;;;;;;;;;;;;;;;;;
203;Schutzhütte am Mettenberg ;;51.67912;11.23257;1;;;;;;;;;;;;;1;;;;
204;Selkesicht an der Ackeburg ;;51.68547;11.25443;1;;;;;;;;;;;;;1;;;;
205;Rastplatz unterhalb des Clusberges ;;51.66342;11.30631;1;;;;;;;;;;;;;;;;;
206;Hahnestein ;;51.67538;10.64158;1;;;;;;;;;;;;;;;;;
207;Mausoleum ;;51.70070;11.28338;1;;;;;;;;;;;;;1;;;;
208;Burgruine Grillenburg ;;51.53450;11.31443;1;;;;;;;;;;;;;;;;;
209;Moltkewarte (Aussichtsturm) ;;51.49308;11.27100;1;;;;;;;;;;;;;;;;;
210;Schöne Aussicht Hainrode ;;51.50133;11.14183;1;;;;;;;;1;;;;;;;;;
211;Killiansteiche ;;51.60758;11.01495;1;;;;;;;;;;;;;;;;;
212;An der Queste ;;51.49327;11.11720;1;;;;;;;;1;;;;;;;;;
213;Bauerngraben ;;51.48897;11.07794;1;;;;;;;;1;;;;;;;;;
214;Reesbergdoline ;;51.49778;10.94777;1;;;;;;;;1;;;;;;;;;
215;Josephshöhe (Auerberg) ;;51.58061;11.00553;1;;;;;;;;;;1;;;;;;;
216;Lutherbuche ;;51.57180;10.95271;1;;;;;;;;;;1;;;;;;;
217;Sonnenkappe Oderteich (NPH) ;;51.77944;10.53248;1;;;;;;;1;;;;1;;;;;;
218;Neustädter Talsperre ;;51.57888;10.86333;1;;;;;;;;;;;;;;;;;
219;Wippertalsperre ;;51.56956;11.19266;1;;;;;;;;;;1;;;;;;;
220;Schutzhütte Phillippsgruß ;;51.60973;10.53118;1;;;;;;;;;;;;;;;;;
221;Jungfernklippe ;;51.80420;10.51382;1;;;;;;;;;;;;;;;;;
222;Bergbaulehrpfad Wettelrode ;;51.52038;11.27694;1;;;;;;;1;1;;;;;;;;;
9900;Grenzturm Rhoden;;52.01073;10.63682;;;;;;1;;;;;;;;;;;;1
9901;Jungborn;;51.88569;10.64628;;;;;;1;;;;;;1;;;;;;
9902;Zweiländereiche;;51.61686;10.63886;;;;;;1;;;;;;;;;;;;
9903;Drei-Länder-Stein;;51.64153;10.70233;;;;;;1;;;;;;;;;;;;
9905;Glasmanufaktur Harzkristall;;51.86804;10.87796;;;;;;;;;;;;;;;;;;
9906;Museum für Naturkunde Magdeburg;;52.12535;11.62947;;;;;;;;;;;;;;;;;;
9908;„Kleiner Harz“ Werningerode;;51.84477;10.78156;;;;;;;;;;;;;;;;;;
9909;Ahornpark Ilfeld;;51.58200;10.77350;;;;;;;;;;;;;;;;;;
9910;Baumwipfelpfad Bad Harzburg;;51.86993;10.56311;;;;;;;;;;;;;;;;;;
9915;Titan-RT;;51.74079;10.89409;;;;;;;;;;;;;;;;;;
9916;Transall;;51.83947;10.77279;;;;;;;;;;;;;;;;;;
9918;Museum im Ritterhaus;;51.72535;10.25415;;;;;;;;;;;;;;;;;;
9919;Waldlehrpfad Bärenstein Heimburg;;51.81967;10.91597;;;;;;;;;;;;;;;;;;
9921;Rodelhaus Braunlage;;51.74527;10.61562;;;;;;;;;;;;;;;;;;
9922;Tourist Info Wernigerode;;51.83297;10.78460;;;;;;;;;;;;;;;;;;
9923;Märchenweg Wernigerode;;51.81564;10.77664;;;;;;;;;;;;;;;;;;
9924;Pullman City;;51.70193;10.86858;;;;;;;;;;;;;;;;;;
9925;Jagdschloss Windenhütte;;51.70099;10.94536;;;;;;;;;;;;;;;;;;
9926;Schausägewerk Ehrt;;51.76768;10.81493;;;;;;;;;;;;;;;;;;
9927;Auerhuhngehege;;51.68975;10.34850;;;;;;;;;;;;1;;;;;;
9928;Hasseröder Ferienpark;;51.82086;10.75707;;;;;;;;;;;;;;;;;;
9929;Waldbad Elend;;51.74624;10.69673;;;;;;;;;;;;;;;;;;
9932;Waldcafe Forellenteich;;51.70766;10.60210;;;;;;;;;;;;;;;;;;
9933;Stammhaus Schierker Feuerstein;;51.76437;10.66184;;;;;;;;;;;;;;;;;;
9934;Argenta Wohnpark;;51.82150;10.74440;;;;;;;;;;;;;;;;;;
9935;Park Hohenrode;;51.51498;10.78739;;;;;;;;;;;;;;;;;;
9939;Bienenpfad Wieda;;51.63270;10.58368;;;;;;;;;;;;;;;;;;
9940;Bundeswehr-Ausstellung;;51.78846;10.95969;;;;;;;;;;;;;;;;;;
9941;Borkenkäferpfad;;51.85843;10.65948;;;;;;;;;;;;1;;;;;;
9942;Waldwandel am Brocken;;51.77242;10.64228;;;;;;;;;;;;1;;;;;;
9943;Waldwandelweg;;51.80290;10.55248;;;;;;;;;;;;1;;;;;;
9944;Brockengarten;;51.79950;10.61785;;;;;;;;;;;;1;;;;;;
9945;Löwenzahn-Entdeckerpfad;;51.77147;10.72344;;;;;;;;;;;;1;;;;;;
9946;HarzWaldHaus;;51.87202;10.56100;;;;;;;;;;;;1;;;;;;
9947;Skywalk am Sonnenstein;;51.49740;10.38480;;;;;;;;;;;;;;;;;;
9948;Baumschwebebahn;;51.87067;10.56995;;;;;;;;;;;;;;;;;;
9949;Oder Minigolf;;51.63122;10.47604;;;;;;;;;;;;;;;;;;
9950;Harzmuseum;;51.83277;10.78352;;;;;;;;;;;;;;;;;;
9951;Rotes Sofas;;51.66578;10.70636;;;;;;;;;;;;;;;;;;
9952;United Kids Foundation;;51.80396;10.51154;;;;;;;;;;;;;;;;;;
9953;Holzkirche Elend;;51.74347;10.68469;;;;;;;;;;;;;;;;;;
9954;Startpunkt Harzer Hexenstieg in Osterode;;51.72769;10.25265;;;;;;;;;;;;;;;;;;
9955;Sonderstempel 10 Jahre Nationales Naturerbe in Blankenburg;;51.77743;10.91500;;;;;;;;;;;;;;;;;;
9956;Sonderstempelstelle „Wald für morgen“;;51.89863;10.44762;;;;;;;;;;;;;;;;;;
9957;Sonderstempelstelle 200 Jahre Kneipp;;51.62016;10.48083;;;;;;;;;;;;;;;;;;
9958;Pastorenstein;;51.82442;10.96222;;;;;;;;;;;;;;;;;;
9960;Matthias Schmidt Berg;;51.70400;10.52427;;;;;;;;;;;;;;;;;;
9961;Ankenberg;;51.49573;11.18474;;;;;;;;;1;;;;;;;;;
9962;Pölsfeld;;51.52542;11.35871;;;;;;;;;1;;;;;;;;;
9963;Steinholzwarte;;51.81779;11.10401;;;;;;;;;;;;;1;;;;;
9964;Hammwarte;;51.80001;11.13613;;;;;;;;;;;;;1;;;;;
9965;Lehof;;51.81108;11.16612;;;;;;;;;;;;;1;;;;;
9966;Blicklingswarte;;51.75994;11.17373;;;;;;;;;;;;;1;;;;;
9967;Altenburgwarte;;51.78260;11.11617;;;;;;;;;;;;;1;;;;;
9968;1100 jähriges Jubiläum Goslar;;51.90607;10.42756;;;;;1;;;;;;;;1;;;;;
9969;Aholzwarte;;51.75569;11.11224;;;;;;;;;;;;;1;;;;;
9970;Stabkirche Stiege;;51.66139;10.88051;;;;;;;;;;;;;;;;;;
9971;Cafe Winuwuk;;51.87703;10.54016;;;;;;;;;;;;;;;;;;
9972;Biologisches Schwimmbad am Thie;;51.79512;10.95474;;;;;;;;;;;;;;;;;;
9973;Servicebüro Harzer Wandernadel;;51.78844;10.95984;;;;;;;;;;;;;;;;;;
9977;Goetheweg;;51.80705;10.46006;;;;;;;;;;;;;;;;;;
9981;Urwaldstieg;;51.79034;10.64106;;;;;;;;;;;;;;;;;;
9985;Wasserweg Stromabwärts;;51.82223;10.81050;;;;;;;;;;;;;;;;;;
9986;Wasserweg Stromaufwärts;;51.83428;10.77857;;;;;;;;;;;;;;;;;;
9987;25 Jahre Nationalparkhaus Sankt Andreasberg;;51.71153;10.51568;;;;;;;;;;;;;;;;;;
9988;Wildnispfad Altenau;;51.79135;10.45687;;;;;;;;;;;;;;;;;;
9990;Waldbewohner Apartments;;51.85611;10.67182;;;;;;;;;;;;;;;;;;
9991;Feuerwehrmuseum Wernigerode;;51.83383;10.78933;;;;;;;;;;;;;;;;;;
9992;Botanischer Garten Halle;;51.48946;11.96048;;;;;;;;;;;;;;;;;;
2013-04;Kelle;;51.57486;10.71744;;;;;;;;;1;;;;;;;;;
2023-04;Brockenblick am Lehrpfad;;51.58275;10.55815;;;;;;;;;;;;;;;;;;
9959,1;Harzgeröder Kugelspaß Station 1;;51.64274;11.14176;;;;;;;;;;;;;;;;;;
9959,2;Harzgeröder Kugelspaß Station 2;;51.64274;11.14176;;;;;;;;;;;;;;;;;;
BAU01;Berggaststätte Hausberg;;51.63103;10.46339;;1;;;;;;;;;;;;;;;;
BAU02;Ravensberger Baude „Berghof“;;51.62149;10.52704;;1;;;;;;;;;;;;;;;;
BAU03;Waldgasthaus Bahnhof Stöberhai;;51.66220;10.57556;;1;;;;;;;;;;;;;;;;
BS01;Schloss Quedlinburg;;51.78581;11.13752;;;1;;;;;;;;;;;;;;;
BS04;Burgruine Hausneindorf;;51.83998;11.27157;;;1;;;;;;;;;;;;;;;
BS05;Erichsburg;;51.67164;11.06070;;;1;;;;;;;;;;;;;;;
BS06;Großes Schloss Blankenburg;;51.78697;10.95525;;;1;;;;;;;;;;;;;;;
BS07;Güntersburg;;51.63579;10.97310;;;1;;;;;;;;;;;;;;;
BS09;Heinrichsburg;;51.67652;11.13451;;;1;;;;;;;;;;;;;;;
BS10;Huysburg;;51.96000;11.00114;;;1;;;;;;;;;;;;;;;1
BS12;Kleines Schloss Blankenburg;;51.78847;10.95973;;;1;;;;;;;;;;;;;;;
BS13;Königsplatz Bodfeld;;51.78820;10.83979;;;1;;;;;;;;;;;;;;;
BS14;Königsplatz Derenburg;;51.87423;10.91411;;;1;;;;;;;;;;;;;;;
BS16;Roseburg;;51.72705;11.19548;;;1;;;;;;;;;;;;;;;
BS18;Ruine Domburg im Hakel bei Heteborn;;51.87620;11.31693;;;1;;;;;;;;;;;;;;;
BS19;Burg Schlanstedt;;52.01029;11.02936;;;1;;;;;;;;;;;;;;;1
BS20;Schloss Ballenstedt;;51.71816;11.21985;;;1;;;;;;;;;;;;;;;
BS21;Schloss Hessen;;52.01873;10.78177;;;1;;;;;;;;;;;;;;;1
BS22;Schloss Wernigerode;;51.83075;10.79362;;;1;;;;;;;;;;;;;;;
BS23;Schloss zu Harzgerode;;51.64265;11.14159;;;1;;;;;;;;;;;;;;;
BS24;Selkenfelder Schanze;;51.65065;10.92691;;;1;;;;;;;;;;;;;;;
BS25;Seweckenberge bei Quedlinburg;;51.76992;11.20721;;;1;;;;;;;;;;1;;;;;
BS26;St. Wiperti;;51.78544;11.13033;;;1;;;;;;;;;;1;;;;;
BS27;Stapelburg;;51.90371;10.66917;;;1;;;;;;;;;;;;;;;
BS28;Stecklenburg;;51.73092;11.08829;;;1;;;;;;;;;;;;;;;
BS29;Treseburg;;51.71817;10.97059;;;1;;;;;;;;;;;;;;;
BS30;Westerburg;;52.01394;10.86604;;;1;;;;;;;;;;;;;;;
BS31;Winzenburg;;51.74128;11.01270;;;1;;;;;;;;;;;;;;;
BS32;Wasserburg Zilly;;51.94314;10.82516;;;1;;;;;;;;;;;;;;;1
K03;Badenhäuser Königsstein;;51.75780;10.19785;;;;;;;;;1;;;;;;;;;
K04;Burgruine Lichtenstein;;51.72136;10.17570;;;;;;;;;1;;;;;;;;;
K05;Osteroder Feldherrenhügel;;51.70041;10.23198;;;;;;;;;1;;;;;;;;;
K06;Dünaer Rötzelkamm;;51.69701;10.26364;;;;;;;;;1;;;;;;;;;
K07;Herzberger Papenberg;;51.64789;10.35960;;;;;;;;;1;;;;;;;;;
K10;Westersteine;;51.60006;10.43335;;;;;;;;;1;;;;;;;;;
K14;Wache auf dem Mühlberg;;51.55511;10.76061;;;;;;;;;1;;;;;;;;;
K16;Salzaspring;;51.53044;10.76171;;;;;;;;;1;;;;;;;;;
KL01;Kloster Wendhusen;;51.75624;11.04923;;;;;;;;;;1;;;;;;;;
KL02;Bergkirche St. Bartholomäus;;51.78773;10.95454;;;;;;;;;;1;;;;;;;;
KL03;Kloster Michaelstein;;51.80599;10.91381;;;;;;;;;;1;;;;;;;;
KL04;Klosterort Himmelpforte;;51.83349;10.74318;;;;;;;;;;1;;;;;;;;
KL05;Kloster Drübeck;;51.85568;10.71553;;;;;;;;;;1;;;;;;;;
KL06;Kloster Ilsenburg;;51.85984;10.67875;;;;;;;;;;1;;;;;;;;
KL07;Kloster Wöltingerode;;51.95936;10.54000;;;;;;;;;;1;;;;;;;;
KL08;Stiftskirche St. Georg Grauhof;;51.93778;10.44801;;;;;;;;;;1;;;;;;;;
KL09;Neuwerkkirche;;51.90953;10.42531;;;;;;;;;;1;;;;;;;;
KL10;Stiftskirche St. Cyriakus;;51.72461;11.13596;;;;;;;;;;1;;;1;;;;;
KL11;Museum Klosterkirche St. Marien;;51.78763;11.13355;;;;;;;;;;1;;;1;;;;;
KL12;St. Johanniskirche;;51.83705;10.78813;;;;;;;;;;1;;;;;;;;
L01;Wolfsmühle Rodishain;;51.53740;10.92848;;;;;;;;;;;1;;;;;;;
L02;Feldflur Hayn;;51.57992;11.06311;;;;;;;;;;;1;;;;;;;
L03;Naturerlebnisstation am Heuweg;;51.57377;11.15662;;;;;;;;;;;1;;;;;;;
L04;Naturerlebnisstation am Kleebeck;;51.56023;11.28372;;;;;;;;;;;1;;;;;;;
L05;Baumrode;;51.57706;11.38306;;;;;;;;;;;1;;;;;;;
L06;Naturerlebnisstation am Brandberg;;51.58729;11.42807;;;;;;;;;;;1;;;;;;;
L07;Luthers kalte Stelle;;51.51715;11.61341;;;;;;;;;;;1;;;;;;;
ST01;Wolfshagen Festhalle;;51.91070;10.31757;;;;;;;;;;;;;;;1;;;
ST02;Steinway-Park;;51.88420;10.20687;;;;;;;;;;;;;;;1;;;
ST03;Seesen Poststraße;;51.8894;10.17261;;;;;;;;;;;;;;;1;1;;
ST04;Städtisches Museum Seesen;;51.89259;10.17196;;;;;;;;;;;;;;;1;;;
DR01;Herrhausen;;51.86723;10.18436;;;;;;;;;;;;;;;;1;;
DR02;Münchehof;;51.84514;10.20551;;;;;;;;;;;;;;;;1;;
DR03;Kirchberg;;51.85500;10.15754;;;;;;;;;;;;;;;;1;;
DR04;Ildehausen;;51.85159;10.12773;;;;;;;;;;;;;;;;1;;
DR05;Engelade;;51.8775;10.1374;;;;;;;;;;;;;;;;1;;
DR06;Bilderlahe;;51.88920;10.12755;;;;;;;;;;;;;;;;1;;
DR07;Mechtshausen;;51.91698;10.10913;;;;;;;;;;;;;;;;1;;
DR08;Rhüden;;51.94457;10.12451;;;;;;;;;;;;;;;;1;;
DR09 ;Bornhausen;;51.91823;10.15230;;;;;;;;;;;;;;;;1;;
DE01;Forellenteich;;52.2908;9.44736;;;;;;;;;;;;;;;;;1;
DE02;Waldwirtschaft Bärenhöhle;;52.27943;9.49175;;;;;;;;;;;;;;;;;1;
DE03;Wasserräder Wennigsen;;52.25727;9.52385;;;;;;;;;;;;;;;;;1;
DE04;Waldgaststätte Annaturm;;52.24684;9.50884;;;;;;;;;;;;;;;;;1;
DE05;Naturfreundehaus Deisterhütte;;52.22101;9.57774;;;;;;;;;;;;;;;;;1;
DE06;Deisterpforte;;52.20001;9.52775;;;;;;;;;;;;;;;;;1;
DE07;Berggasthaus Ziegenhütte;;52.21138;9.48196;;;;;;;;;;;;;;;;;1;
DE08;Waldgatstätte Nordmannsturm;;52.26994;9.45335;;;;;;;;;;;;;;;;;1;
DE09;Forsthaus Blumenhagen;;52.26978;9.40765;;;;;;;;;;;;;;;;;1;
DE10;Waldgaststätte Teufelsbrücke;;52.30444;9.40444;;;;;;;;;;;;;;;;;1;
DE11;Waldgasthof Mooshütte;;52.31989;9.39961;;;;;;;;;;;;;;;;;1;
DE12;Tourist-Info im Haus Kassel;;52.3354;9.37652;;;;;;;;;;;;;;;;;1;
HF01;Gletschertöpfe;;51.957019;10.913999;;;;;;;;;;;;;;;;;;1
HF02;Daneilshöhle;;51.962467;10.987304;;;;;;;;;;;;;;;;;;1
HF03;Blechbude Wilhelmshall;;51.96092;10.945868;;;;;;;;;;;;;;;;;;1
HF04;Quelle Piepenpal Huy-Neinstedt;;51.964208;10.914785;;;;;;;;;;;;;;;;;;1
HF05;Wasserschloss Westerburg;;52.0153;10.8664;;;;;;;;;;;;;;;;;;1
HF06;Heimatmuseum Dedeleben;;52.033838;10.891779;;;;;;;;;;;;;;;;;;1
HF07;Linde Vogelsdorf;;52.012116;10.898834;;;;;;;;;;;;;;;;;;1
HF08;Mühle Badersleben;;51.979887;10.894441;;;;;;;;;;;;;;;;;;1
HF09;Heiketalwarte;;51.957371;10.883202;;;;;;;;;;;;;;;;;;1
HF10;Windpark Druiberg;;51.984798;10.848555;;;;;;;;;;;;;;;;;;1
HF11;Deersheim;;51.979573;10.779755;;;;;;;;;;;;;;;;;;1
HF12;Steinbruch Hoppenstedt;;51.999244;10.659301;;;;;;;;;;;;;;;;;;1
HF13;Stötterlingenburg Lüttgenrode;;51.967669;10.666592;;;;;;;;;;;;;;;;;;1
HF14;Bismarckturm Osterwieck;;51.986859;10.711622;;;;;;;;;;;;;;;;;;1
HF15;Schäfers Hof Osterwieck;;51.970381;10.71379;;;;;;;;;;;;;;;;;;1
